{
  "locations": [
    {"id": "amritsar_pb", "name": "Amritsar", "state": "Punjab", "lat": 31.6340, "lon": 74.8723},
    {"id": "hisar_hr", "name": "Hisar", "state": "Haryana", "lat": 29.1492, "lon": 75.7217},
    {"id": "jaipur_rj", "name": "Jaipur", "state": "Rajasthan", "lat": 26.9124, "lon": 75.7873},
    {"id": "lucknow_up", "name": "Lucknow", "state": "Uttar Pradesh", "lat": 26.8467, "lon": 80.9462},
    {"id": "varanasi_up", "name": "Varanasi", "state": "Uttar Pradesh", "lat": 25.3176, "lon": 82.9739},
    {"id": "dehradun_uk", "name": "Dehradun", "state": "Uttarakhand", "lat": 30.3165, "lon": 78.0322},
    {"id": "shimla_hp", "name": "Shimla", "state": "Himachal Pradesh", "lat": 31.1048, "lon": 77.1734},
    {"id": "patna_br", "name": "Patna", "state": "Bihar", "lat": 25.5941, "lon": 85.1376},
    {"id": "ranchi_jh", "name": "Ranchi", "state": "Jharkhand", "lat": 23.3441, "lon": 85.3096},
    {"id": "kolkata_wb", "name": "Kolkata", "state": "West Bengal", "lat": 22.5726, "lon": 88.3639},
    {"id": "bhubaneswar_od", "name": "Bhubaneswar", "state": "Odisha", "lat": 20.2961, "lon": 85.8245},
    {"id": "guwahati_as", "name": "Guwahati", "state": "Assam", "lat": 26.1445, "lon": 91.7362},
    {"id": "agartala_tr", "name": "Agartala", "state": "Tripura", "lat": 23.8315, "lon": 91.2868},
    {"id": "raipur_ct", "name": "Raipur", "state": "Chhattisgarh", "lat": 21.2514, "lon": 81.6296},
    {"id": "bhopal_mp", "name": "Bhopal", "state": "Madhya Pradesh", "lat": 23.2599, "lon": 77.4126},
    {"id": "nagpur_mh", "name": "Nagpur", "state": "Maharashtra", "lat": 21.1458, "lon": 79.0882},
    {"id": "nashik_mh", "name": "Nashik", "state": "Maharashtra", "lat": 19.9975, "lon": 73.7898},
    {"id": "pune_mh", "name": "Pune", "state": "Maharashtra", "lat": 18.5204, "lon": 73.8567},
    {"id": "ahmedabad_gj", "name": "Ahmedabad", "state": "Gujarat", "lat": 23.0225, "lon": 72.5714},
    {"id": "hyderabad_tg", "name": "Hyderabad", "state": "Telangana", "lat": 17.3850, "lon": 78.4867},
    {"id": "vijayawada_ap", "name": "Vijayawada", "state": "Andhra Pradesh", "lat": 16.5062, "lon": 80.6480},
    {"id": "bengaluru_ka", "name": "Bengaluru", "state": "Karnataka", "lat": 12.9716, "lon": 77.5946},
    {"id": "mysuru_ka", "name": "Mysuru", "state": "Karnataka", "lat": 12.2958, "lon": 76.6394},
    {"id": "coimbatore_tn", "name": "Coimbatore", "state": "Tamil Nadu", "lat": 11.0168, "lon": 76.9558},
    {"id": "chennai_tn", "name": "Chennai", "state": "Tamil Nadu", "lat": 13.0827, "lon": 80.2707},
    {"id": "kochi_kl", "name": "Kochi", "state": "Kerala", "lat": 9.9312, "lon": 76.2673},
    {"id": "srinagar_jk", "name": "Srinagar", "state": "Jammu and Kashmir", "lat": 34.0837, "lon": 74.7973}
  ]
}
